[
  {
    "id": "cmfn7nkqe000030mi5grdy5uk",
    "slug": "late-apex-storage-condos-mooresville",
    "name": "Late Apex Storage Condos",
    "address1": "149 Cayuga Drive",
    "city": "Mooresville",
    "state": "NC",
    "postal_code": null,
    "url": null,
    "lat": null,
    "lng": null
  },
  {
    "id": "cmfn8o61r000011ymmqyef2e3",
    "slug": "charlotte-motor-speedway-concord",
    "name": "Charlotte Motor Speedway",
    "address1": "5555 Concord Pkwy S",
    "city": "Concord",
    "state": "NC",
    "postal_code": null,
    "url": null,
    "lat": null,
    "lng": null
  },
  {
    "id": "cmfndetaz0000izdko2bedz6i",
    "slug": "lake-norman-brewery-denver",
    "name": "Lake Norman Brewery",
    "address1": "1753 Triangle Cir",
    "city": "Denver",
    "state": "NC",
    "postal_code": null,
    "url": null,
    "lat": null,
    "lng": null
  },
  {
    "id": "cmfndvzbh0001127pjz5wegno",
    "slug": "gateway-classic-cars-concord",
    "name": "Gateway Classic Cars",
    "address1": "7045 Aviation Blvd",
    "city": "Concord",
    "state": "NC",
    "postal_code": null,
    "url": null,
    "lat": null,
    "lng": null
  },
  {
    "id": "cmfndvzbl0002127px2vitl6x",
    "slug": "martha-rivers-park-gastonia",
    "name": "Martha Rivers Park",
    "address1": "Neal Hawkins Road",
    "city": "Gastonia",
    "state": "NC",
    "postal_code": null,
    "url": null,
    "lat": null,
    "lng": null
  },
  {
    "id": "cmfndxd9c0003127p8ahtqigj",
    "slug": "kostas-kitchen-charlotte",
    "name": "Kostas Kitchen",
    "address1": "2925 Yorkmont Road",
    "city": "Charlotte",
    "state": "NC",
    "postal_code": null,
    "url": null,
    "lat": null,
    "lng": null
  },
  {
    "id": "cmfndxd9d0004127pgx12acn3",
    "slug": "historic-downtown-monroe-monroe",
    "name": "Historic Downtown Monroe",
    "address1": "Main Street",
    "city": "Monroe",
    "state": "NC",
    "postal_code": null,
    "url": null,
    "lat": null,
    "lng": null
  },
  {
    "id": "cmfndxz8y0006127pprqeammk",
    "slug": "hendrick-porsche-charlotte",
    "name": "Hendrick Porsche",
    "address1": "6800 E Independence Blvd",
    "city": "Charlotte",
    "state": "NC",
    "postal_code": null,
    "url": null,
    "lat": null,
    "lng": null
  },
  {
    "id": "cmfndfjk30001izdk3ubrkl0s",
    "slug": "poplin-place-shopping-center-monroe",
    "name": "Poplin Place Shopping Center",
    "address1": "2889 W Highway 74",
    "city": "Monroe",
    "state": "NC",
    "postal_code": null,
    "url": null,
    "lat": null,
    "lng": null
  },
  {
    "id": "cmfndxd9e0005127plris3v6j",
    "slug": "lamborghini-charlotte-charlotte",
    "name": "Lamborghini Charlotte",
    "address1": "6500 E Independence Blvd",
    "city": "Charlotte",
    "state": "NC",
    "postal_code": null,
    "url": null,
    "lat": null,
    "lng": null
  },
  {
    "id": "cmfndyykw0007127p4uq7aqvl",
    "slug": "charlotte-convention-center-charlotte",
    "name": "Charlotte Convention Center",
    "address1": "501 S College St",
    "city": "Charlotte",
    "state": "NC",
    "postal_code": null,
    "url": null,
    "lat": null,
    "lng": null
  },
  {
    "id": "cmfrbrry80000ug14mg5nryrf",
    "slug": "brooklyns-pizzeria-concord",
    "name": "Brooklyn's Pizzeria",
    "address1": "3481 US-601",
    "city": "Concord",
    "state": "NC",
    "postal_code": null,
    "url": null,
    "lat": null,
    "lng": null
  },
  {
    "id": "cmfrbu1820001ug14s3ovvb1y",
    "slug": "sun-valley-commons-indian-trail",
    "name": "Sun Valley Commons",
    "address1": "6467 Old Monroe Rd",
    "city": "Indian Trail",
    "state": "NC",
    "postal_code": null,
    "url": null,
    "lat": null,
    "lng": null
  },
  {
    "id": "cmfrc41lt0001ug4aozzyvd7h",
    "slug": "victory-youth-building-charlotte",
    "name": "Victory Youth Building",
    "address1": "7224 Old Pineville Road",
    "city": "Charlotte",
    "state": "NC",
    "postal_code": null,
    "url": null,
    "lat": null,
    "lng": null
  }
]